{"name":"Anacortes Public Library","lat":48.5146402,"lng":-122.6165119}{"name":"Amarillo Public Library","lat":35.2098352,"lng":-101.832117}{"name":"Little Free Library","lat":34.290887,"lng":-118.7113086}{"name":"May Memorial Library","lat":36.092883,"lng":-79.4365349}{"name":"Alachua Branch | Alachua County Library District","lat":29.792041,"lng":-82.49390799999999}