[
  { "name": "Amarillo Public Library", "lat": 35.2098352, "lng": -101.832117 },
  {
    "name": "Anacortes Public Library",
    "lat": 48.5146402,
    "lng": -122.6165119
  },
  {
    "name": "Alachua Branch | Alachua County Library District",
    "lat": 29.792041,
    "lng": -82.49390799999999
  },
  { "name": "May Memorial Library", "lat": 36.092883, "lng": -79.4365349 },
  { "name": "Little Free Library", "lat": 34.290887, "lng": -118.7113086 }
]
[{"name":"May Memorial Library","latitude":36.092883,"longitude":-79.4365349,"institutionSymbol":null,"date":{"year":2022,"month":7}},{"name":"Little Free Library","latitude":34.290887,"longitude":-118.7113086,"institutionSymbol":null,"date":{"year":2022,"month":7}}]{"name":"Anacortes Public Library","latitude":48.5146402,"longitude":-122.6165119,"institutionSymbol":null,"date":{"year":2022,"month":7}},{"name":"Amarillo Public Library","latitude":35.2098352,"longitude":-101.832117,"institutionSymbol":null,"date":{"year":2022,"month":7}},{"name":"Alachua Branch | Alachua County Library District","latitude":29.792041,"longitude":-82.49390799999999,"institutionSymbol":null,"date":{"year":2022,"month":7}},